"JASID","LGC","Name","Site_no","SiteName","SiteType","Lat","Lon","P","J","Y","K","N","H","M","E","D","U"
11202502100,11202,"熊谷市",21,"萩山遺跡","集落跡",36.11907252,139.3315938,1,1,NA,NA,NA,NA,1,NA,NA,NA
11202502800,11202,"熊谷市",28,"向原遺跡","集落跡",36.11341859,139.3580655,1,1,NA,1,NA,NA,0,NA,NA,NA
11202505200,11202,"熊谷市",52,"天神（伊勢）遺跡","集落跡",36.11266078,139.3100686,1,1,NA,NA,1,1,1,NA,NA,NA
11202505300,11202,"熊谷市",53,"桜山遺跡","集落跡 古墳",36.11009344,139.3075018,1,1,NA,1,1,1,1,NA,NA,NA
11202506000,11202,"熊谷市",60,"塩西遺跡","集落跡 古墳群 城館跡",36.10399585,139.3201129,1,1,NA,1,1,1,1,1,NA,NA
11202506400,11202,"熊谷市",64,"塩丸山遺跡","集落跡 古墳",36.10047805,139.3226848,1,1,NA,1,1,1,1,1,NA,NA
11202508500,11202,"熊谷市",85,"千代西原遺跡","集落跡",36.12398003,139.3151364,1,1,NA,NA,1,1,1,NA,NA,NA
11207003500,11207,"秩父市",35,"柳田遺跡Ⅰ","集落跡",36.01082284,139.0846117,1,NA,1,NA,NA,NA,0,NA,NA,NA
11207008000,11207,"秩父市",80,"橋立岩陰遺跡","その他",35.95734,139.057861,1,1,1,1,NA,NA,0,NA,NA,NA
11208000100,11208,"所沢市",1,"甲館出遺跡","旧石器 集落跡",35.796041,139.4457242,1,1,NA,NA,NA,1,0,NA,NA,NA
11208000400,11208,"所沢市",4,"所沢市No.4遺跡","集落跡",35.80917621,139.534067,1,1,1,NA,NA,NA,0,NA,NA,NA
11208000700,11208,"所沢市",7,"所沢市No.7遺跡","集落跡",35.7929779,139.4850915,1,1,NA,NA,NA,NA,0,NA,NA,NA
11208001000,11208,"所沢市",10,"本郷東上遺跡","集落跡",35.78421615,139.4444639,1,1,NA,NA,NA,NA,0,NA,NA,NA
11208001300,11208,"所沢市",13,"和田遺跡","旧石器 集落跡 散布地",35.78734561,139.4091627,1,1,NA,NA,NA,NA,0,NA,NA,NA
11208001500,11208,"所沢市",15,"所沢市No.15遺跡","散布地",35.78070623,139.4786159,1,1,NA,NA,NA,NA,0,NA,NA,NA
11208001800,11208,"所沢市",18,"下安松遺跡","集落跡",35.80417455,139.5070262,1,1,NA,NA,NA,NA,0,NA,NA,NA
11208002100,11208,"所沢市",21,"所沢市No.21遺跡","集落跡",35.7989663,139.4012076,1,1,NA,NA,NA,NA,0,NA,NA,NA
11208002400,11208,"所沢市",24,"山下後遺跡","集落跡 古墳",35.79290019,139.3963774,1,1,NA,1,NA,NA,0,NA,NA,NA
11208002500,11208,"所沢市",25,"境窪遺跡","旧石器 集落跡",35.78963723,139.3965093,1,1,NA,NA,NA,NA,0,NA,NA,NA
11208002600,11208,"所沢市",26,"膳棚遺跡","旧石器 集落跡",35.79199329,139.3938907,1,1,NA,1,NA,NA,0,NA,NA,NA
11208002800,11208,"所沢市",28,"吉野遺跡","集落跡",35.78641093,139.386568,1,1,1,1,NA,NA,0,NA,NA,NA
11208003100,11208,"所沢市",31,"高峰遺跡","集落跡",35.78936604,139.4071757,1,1,NA,1,NA,NA,0,NA,NA,NA
11208003200,11208,"所沢市",32,"宮前遺跡","集落跡",35.79205773,139.4057321,1,1,1,1,NA,NA,0,NA,NA,NA
11208004100,11208,"所沢市",41,"日向遺跡","集落跡",35.7870967,139.4147931,1,1,1,1,1,1,0,NA,NA,NA
11208004300,11208,"所沢市",43,"砂川遺跡","旧石器 散布地",35.79544285,139.4285968,1,1,NA,1,1,1,0,NA,NA,NA
11208004400,11208,"所沢市",44,"白旗塚遺跡","集落跡",35.79733944,139.4242686,1,1,NA,NA,NA,NA,0,NA,NA,NA
11208004600,11208,"所沢市",46,"白旗塚遺跡","旧石器",35.80055742,139.4252506,1,NA,NA,NA,NA,NA,0,NA,NA,NA
11208005000,11208,"所沢市",50,"石塚遺跡","集落跡",35.77206381,139.4304191,1,1,NA,NA,NA,NA,0,NA,NA,NA
11208005300,11208,"所沢市",53,"","旧石器 散布地",35.78666171,139.4256206,1,1,NA,NA,NA,NA,0,NA,NA,NA
11208007100,11208,"所沢市",71,"膳棚東遺跡","旧石器 古墳",35.80370301,139.5157141,1,1,NA,1,NA,NA,0,NA,NA,NA
11208007200,11208,"所沢市",72,"所沢市No.72遺跡","散布地",35.80514336,139.5169668,1,1,NA,NA,NA,NA,0,NA,NA,NA
11208007300,11208,"所沢市",73,"武野原遺跡","散布地",35.78465301,139.50636,1,1,NA,1,NA,NA,0,NA,NA,NA
11208007600,11208,"所沢市",76,"程久保遺跡","散布地",35.79228712,139.482529,1,1,NA,NA,NA,NA,0,NA,NA,NA
11208008100,11208,"所沢市",81,"所沢市No.81遺跡","散布地",35.79833675,139.4825568,1,1,NA,NA,NA,NA,0,NA,NA,NA
11208009800,11208,"所沢市",98,"所沢市No.98遺跡","旧石器 散布地",35.78019635,139.4355241,1,NA,NA,NA,NA,NA,0,NA,NA,NA
11208009900,11208,"所沢市",99,"所沢市No.99遺跡","旧石器 散布地",35.79755591,139.4124834,1,NA,NA,NA,NA,NA,0,NA,NA,NA
11208010000,11208,"所沢市",100,"所沢市No.100遺跡","旧石器",35.80300126,139.4287721,1,NA,NA,NA,NA,NA,0,NA,NA,NA
11208010100,11208,"所沢市",101,"所沢市No.101遺跡","集落跡",35.77985467,139.407041,1,1,NA,NA,1,1,0,NA,NA,NA
11208011200,11208,"所沢市",112,"上新井台遺跡","旧石器",35.78879218,139.3945904,1,1,NA,NA,NA,NA,0,NA,NA,NA
11208011600,11208,"所沢市",116,"海谷遺跡","集落跡 古墳",35.78620387,139.4048871,1,1,NA,1,NA,NA,0,NA,NA,NA
11208012100,11208,"所沢市",121,"野中遺跡","散布地",35.79496696,139.4216445,1,1,NA,1,NA,NA,0,NA,NA,NA
11208012200,11208,"所沢市",122,"中砂遺跡","散布地",35.77807682,139.4353286,1,1,NA,NA,NA,NA,0,NA,NA,NA
11208012800,11208,"所沢市",128,"後内手遺跡","集落跡",35.79066947,139.4235614,1,1,NA,1,NA,NA,0,NA,NA,NA
11208014300,11208,"所沢市",143,"所沢市No.143遺跡","散布地",35.78495774,139.4965223,1,1,1,NA,NA,NA,0,NA,NA,NA
11208015300,11208,"所沢市",153,"所沢市No.153遺跡","散布地",35.7897587,139.5096151,1,NA,NA,NA,NA,NA,0,NA,NA,NA
11208015700,11208,"所沢市",157,"城西ノ上遺跡","旧石器",35.80790145,139.5261042,1,1,NA,NA,NA,NA,0,NA,NA,NA
11208016000,11208,"所沢市",160,"駿河台遺跡","散布地",35.79738116,139.5253803,1,1,NA,NA,NA,1,0,NA,NA,NA
11208016100,11208,"所沢市",161,"ハケ遺跡","集落跡",35.80143852,139.5320532,1,1,NA,NA,NA,NA,0,NA,NA,NA
11209001900,11209,"飯能市",19,"小岩井渡場遺跡","集落跡",35.86345698,139.2717935,1,1,NA,NA,NA,NA,0,NA,NA,NA
11209002700,11209,"飯能市",27,"曽根遺跡","旧石器 集落跡",35.84311208,139.3210099,1,1,NA,NA,NA,NA,0,NA,NA,NA
11209003000,11209,"飯能市",30,"尾根遺跡","旧石器 集落跡",35.83529131,139.3084099,1,1,NA,NA,NA,NA,0,NA,NA,NA
11209003100,11209,"飯能市",31,"三ツ沢遺跡","集落跡",35.83382574,139.3118125,1,1,NA,NA,NA,NA,0,NA,NA,NA
11209003300,11209,"飯能市",33,"道間遺跡","集落跡",35.8348079,139.3195757,1,1,NA,1,NA,1,0,NA,NA,NA
11209003400,11209,"飯能市",34,"マグサビ遺跡","散布地",35.84022029,139.3148389,1,1,NA,NA,NA,NA,0,NA,NA,NA
11209007400,11209,"飯能市",74,"上ノ原遺跡","旧石器 散布地",35.86571642,139.3720707,1,NA,NA,NA,NA,NA,0,NA,NA,NA
11209008400,11209,"飯能市",84,"尾渕遺跡","集落跡",35.86137563,139.336223,1,1,NA,NA,1,1,0,NA,NA,NA
11209009000,11209,"飯能市",90,"市No.90遺跡","旧石器 散布地",35.87526405,139.3602138,1,NA,NA,NA,NA,NA,0,NA,NA,NA
11215007000,11215,"狭山市",70,"東久保遺跡","集落跡",35.8658041,139.3778318,1,NA,NA,NA,NA,NA,0,NA,NA,NA
11215007800,11215,"狭山市",78,"下双木遺跡","集落跡",35.87993713,139.3967765,1,NA,NA,NA,NA,NA,0,NA,NA,NA
11218713800,11218,"深谷市",138,"宮入遺跡","集落跡",36.10774178,139.274128,1,1,NA,NA,NA,NA,1,NA,NA,NA
11225000200,11225,"入間市",2,"中桂遺跡","旧石器",35.7948107,139.3360532,1,NA,NA,NA,NA,NA,0,NA,NA,NA
11225000400,11225,"入間市",4,"南内野遺跡","旧石器",35.80904695,139.3343222,1,NA,NA,NA,NA,NA,0,NA,NA,NA
11225001300,11225,"入間市",13,"坂東山遺跡","集落跡",35.8302601,139.3760702,1,1,NA,NA,1,1,1,NA,NA,NA
11225003800,11225,"入間市",38,"狭山際遺跡","集落跡",35.78671163,139.3748916,1,1,NA,NA,NA,NA,0,NA,NA,NA
11225006200,11225,"入間市",62,"東武蔵野遺跡","旧石器",35.80706436,139.3399316,1,NA,NA,NA,NA,NA,0,NA,NA,NA
11225006300,11225,"入間市",63,"西武蔵野遺跡","旧石器",35.80157956,139.3314068,1,NA,NA,NA,NA,NA,0,NA,NA,NA
11225007200,11225,"入間市",72,"十文字原遺跡","その他",35.8169054,139.3667574,1,NA,NA,NA,NA,NA,0,NA,NA,NA
11227000100,11227,"朝霞市",1,"大山第一遺跡","集落跡",35.83010782,139.5865562,1,1,1,1,NA,NA,0,NA,NA,NA
11227000300,11227,"朝霞市",3,"大瀬戸遺跡","集落跡",35.82788998,139.5884664,1,1,NA,1,NA,NA,0,NA,NA,NA
11227001100,11227,"朝霞市",11,"八ケタ・中通遺跡","集落跡 その他",35.82654238,139.5912406,1,1,1,1,1,1,1,1,NA,NA
11227001300,11227,"朝霞市",13,"人部・峡遺跡","集落跡 古墳",35.82166711,139.5965927,1,1,1,1,1,1,1,1,NA,NA
11227001400,11227,"朝霞市",14,"中道・中道下遺跡","集落跡",35.81896655,139.5959633,1,1,1,1,1,1,1,1,NA,NA
11227002000,11227,"朝霞市",20,"泉水山・富士谷遺跡","集落跡",35.80726827,139.5810267,1,1,1,1,1,1,1,1,NA,NA
11227002800,11227,"朝霞市",28,"蛇窪遺跡","旧石器 集落跡",35.78864434,139.5847534,1,1,NA,NA,NA,NA,0,NA,NA,NA
11227003000,11227,"朝霞市",30,"上の原第一遺跡","旧石器",35.79142925,139.5852493,1,NA,NA,NA,NA,NA,0,NA,NA,NA
11227005400,11227,"朝霞市",54,"宮台・宮原遺跡","集落跡",35.80690327,139.6050489,1,1,1,1,1,1,1,1,NA,NA
11227005500,11227,"朝霞市",55,"宮台遺跡","集落跡 古墳",35.80965344,139.6054942,1,1,1,1,1,1,1,1,NA,NA
11228000200,11228,"志木市",2,"中野遺跡","旧石器 集落跡 墓",35.83347096,139.5731115,1,1,1,1,NA,1,1,1,NA,NA
11228000300,11228,"志木市",3,"城山遺跡","旧石器 貝塚 集落跡 城跡",35.83232667,139.569602,1,1,1,1,1,1,1,1,NA,NA
11228000500,11228,"志木市",5,"中道遺跡","旧石器 集落跡 墓",35.82948133,139.5689154,1,1,1,1,1,1,1,1,NA,NA
11228000700,11228,"志木市",7,"西原大塚遺跡","旧石器 集落跡 墓",35.82443988,139.565711,1,1,1,1,1,1,1,1,NA,NA
11229000400,11229,"和光市",4,"四ツ木遺跡","集落跡",35.79398121,139.6222991,1,1,1,1,NA,1,0,NA,NA,NA
11229000500,11229,"和光市",5,"午王山遺跡","集落跡",35.79581211,139.6268027,1,1,1,1,1,1,1,NA,NA,NA
11229001100,11229,"和光市",11,"柿ノ木坂遺跡","集落跡　散布地",35.79194066,139.6156205,1,1,NA,1,NA,NA,0,NA,NA,NA
11229001500,11229,"和光市",15,"吹上原遺跡","集落跡　古墳",35.78952881,139.6303755,1,1,1,1,NA,NA,0,1,NA,NA
11229001700,11229,"和光市",17,"市場峡・市場上遺跡","集落跡　貝塚　横穴",35.77450593,139.6090666,1,1,NA,1,NA,1,0,NA,NA,NA
11229001800,11229,"和光市",18,"城山南遺跡","集落跡　散布地",35.78307292,139.6228733,1,1,NA,NA,NA,NA,0,NA,NA,NA
11229002500,11229,"和光市",25,"水久保遺跡","集落跡",35.79064713,139.6160701,1,1,NA,NA,1,1,0,NA,NA,NA
11229003500,11229,"和光市",35,"峯遺跡","集落跡",35.77450593,139.6090666,1,1,1,1,NA,1,0,NA,NA,NA
11229003600,11229,"和光市",36,"仏ノ木遺跡","集落跡",35.79173739,139.6231785,1,1,NA,1,NA,1,1,1,NA,NA
11229004100,11229,"和光市",41,"越後山遺跡","集落跡",35.77210995,139.6153071,1,1,1,1,NA,NA,0,NA,NA,NA
11230000901,11230,"新座市",9,"市場坂遺跡","旧石器",35.78320582,139.5805707,1,1,NA,NA,NA,NA,0,NA,NA,NA
11230000902,11230,"新座市",9,"市場坂遺跡","旧石器",35.78087321,139.5792404,1,1,NA,NA,NA,NA,0,NA,NA,NA
11230000903,11230,"新座市",9,"市場坂遺跡","旧石器",35.77857536,139.5784679,1,1,NA,NA,NA,NA,0,NA,NA,NA
11230001100,11230,"新座市",11,"","旧石器",35.78142735,139.5657895,1,NA,NA,NA,NA,NA,0,NA,NA,NA
11230001200,11230,"新座市",12,"澤遺跡","旧石器",35.77396211,139.5743623,1,NA,NA,NA,NA,NA,0,NA,NA,NA
11230002200,11230,"新座市",22,"栗原遺跡","旧石器 集落跡",35.76445524,139.550917,1,1,NA,NA,NA,NA,0,NA,NA,NA
11230003300,11230,"新座市",33,"一両山遺跡","旧石器 その他",35.75739725,139.5459694,1,1,NA,NA,NA,NA,0,NA,NA,NA
11230006200,11230,"新座市",62,"","散布地",35.78768816,139.5761341,1,1,1,NA,NA,1,0,NA,NA,NA
11230006800,11230,"新座市",68,"","",35.78060443,139.5745044,1,1,NA,NA,NA,NA,0,NA,NA,NA
11230009400,11230,"新座市",94,"","散布地",35.76676062,139.5588775,1,1,NA,1,NA,1,0,NA,NA,NA
11230009800,11230,"新座市",98,"","散布地",35.76181462,139.5471414,1,1,NA,NA,NA,NA,0,NA,NA,NA
11235000200,11235,"富士見市",2,"中沢遺跡","集落跡",35.85970419,139.5232095,1,1,NA,NA,1,1,1,1,NA,NA
11235000600,11235,"富士見市",6,"外記塚遺跡","集落跡",35.86105558,139.5264122,1,NA,NA,NA,1,1,1,1,NA,NA
11235000700,11235,"富士見市",7,"市街道遺跡","散布地",35.86417266,139.5276329,1,1,NA,NA,NA,NA,0,NA,NA,NA
11235001400,11235,"富士見市",14,"西渡戸遺跡","散布地",35.85575945,139.5325387,1,1,NA,NA,NA,NA,0,NA,NA,NA
11235001700,11235,"富士見市",17,"羽沢遺跡","集落跡 その他",35.85792323,139.5392965,1,1,NA,NA,NA,NA,1,1,NA,NA
11235001800,11235,"富士見市",18,"上沢遺跡","集落跡 その他",35.85229613,139.5309042,1,1,NA,NA,NA,NA,1,NA,NA,NA
11235001900,11235,"富士見市",19,"浅間後遺跡塚","その他",35.84515346,139.5307135,1,1,NA,1,NA,NA,0,NA,NA,NA
11235002100,11235,"富士見市",21,"山室遺跡","貝塚 集落跡 その他",35.85650103,139.5439505,1,1,NA,NA,NA,1,1,1,NA,NA
11235002600,11235,"富士見市",26,"黒貝戸遺跡","貝塚 集落跡 その他",35.85222503,139.5486229,1,1,NA,1,1,1,1,1,NA,NA
11235002800,11235,"富士見市",28,"宿（多門氏館跡）遺跡","集落跡 城跡 その他",35.85278157,139.5517128,1,1,NA,NA,NA,1,1,1,NA,NA
11235003000,11235,"富士見市",30,"谷津遺跡","集落跡 その他",35.85046809,139.5425496,1,1,NA,NA,1,1,0,NA,NA,NA
11235003300,11235,"富士見市",33,"八ケ上遺跡","貝塚 集落跡 その他",35.84221203,139.5442662,1,1,NA,NA,NA,NA,0,NA,NA,NA
11235003400,11235,"富士見市",34,"本目遺跡","集落跡 その他",35.8399546,139.5395741,1,1,NA,1,NA,1,0,NA,NA,NA
11235003700,11235,"富士見市",37,"新開遺跡","集落跡 窯跡 その他",35.83244073,139.5465976,1,1,NA,NA,NA,1,0,NA,NA,NA
11235003800,11235,"富士見市",38,"松ノ木遺跡","集落跡 その他",35.83711057,139.5480472,1,1,NA,NA,NA,1,1,1,NA,NA
11235003900,11235,"富士見市",39,"打越遺跡","貝塚 集落跡 城跡",35.84456215,139.5513615,1,1,1,1,1,NA,1,NA,NA,NA
11235004100,11235,"富士見市",41,"氷川前遺跡","貝塚 集落跡 古墳 その他",35.84653252,139.5588217,1,1,1,1,NA,1,0,NA,NA,NA
11235004200,11235,"富士見市",42,"水子貝塚","貝塚 集落跡",35.84526472,139.5609198,1,1,1,1,NA,1,1,1,NA,NA
11235004400,11235,"富士見市",44,"観音前遺跡","集落跡 墓 その他",35.84374953,139.5685873,1,1,1,1,NA,1,1,1,NA,NA
11235004900,11235,"富士見市",49,"栗谷ツ遺跡","集落跡 窯跡 その他",35.83614773,139.5551403,1,1,1,NA,NA,1,1,NA,NA,NA
11235005100,11235,"富士見市",51,"北通遺跡","貝塚 集落跡 古墳 墓",35.83324067,139.5541485,1,1,1,1,1,1,1,NA,NA,NA
11235005600,11235,"富士見市",56,"貝塚山遺跡","貝塚 集落跡 古墳",35.86184269,139.5414074,1,1,NA,1,NA,1,0,NA,NA,NA
11235005700,11235,"富士見市",57,"西ノ原遺跡","集落跡",35.8566432,139.5171731,1,1,NA,NA,NA,1,0,1,NA,NA
11239002700,11239,"坂戸市",27,"上谷遺跡","集落跡  窯跡",35.95045276,139.4448906,1,1,NA,NA,NA,NA,0,NA,NA,NA
11239007400,11239,"坂戸市",74,"金内山遺跡","集落跡",35.96920194,139.4041639,1,NA,NA,1,1,1,0,NA,NA,NA
11239012100,11239,"坂戸市",121,"稲荷前遺跡","集落跡",35.96833565,139.359427,1,NA,NA,1,NA,NA,0,NA,NA,NA
11241001300,11241,"鶴ヶ島市",13,"大山遺跡","集落跡",35.92195049,139.3846961,1,1,NA,NA,NA,NA,0,NA,NA,NA
11241001400,11241,"鶴ヶ島市",14,"横田遺跡","旧石器 集落跡",35.92531505,139.3931436,1,1,NA,NA,1,NA,0,NA,NA,NA
11241001500,11241,"鶴ヶ島市",15,"地慶沼遺跡","旧石器",35.92222908,139.4006138,1,1,NA,NA,NA,NA,1,NA,NA,NA
11241001700,11241,"鶴ヶ島市",17,"鶴が丘遺跡","集落跡",35.92437266,139.4185402,1,1,1,1,1,NA,0,NA,NA,NA
11241001800,11241,"鶴ヶ島市",18,"神明裏遺跡","散布地",35.93698706,139.3650177,1,1,NA,1,1,NA,0,NA,NA,NA
11241007600,11241,"鶴ヶ島市",76,"新山遺跡","散布地",35.91622833,139.3868965,1,1,NA,NA,NA,1,0,NA,NA,NA
11241009200,11241,"鶴ヶ島市",92,"柳戸遺跡","集落跡",35.92870216,139.3968396,1,1,1,NA,NA,NA,1,1,NA,NA
11241009300,11241,"鶴ヶ島市",93,"泉橋遺跡","旧石器 集落跡",35.9324641,139.3979968,1,1,NA,NA,NA,NA,0,NA,NA,NA
11241009900,11241,"鶴ヶ島市",99,"後遺跡Ｃ","散布地",35.92974759,139.4037552,1,1,NA,NA,1,1,0,NA,NA,NA
11241010300,11241,"鶴ヶ島市",103,"富士見一丁目遺跡","集落跡",35.94867764,139.4116385,1,NA,NA,NA,NA,1,0,NA,NA,NA
11245250300,11245,"ふじみ野市",3,"川崎遺跡","集落跡",35.88801348,139.5202709,1,1,NA,1,1,1,0,NA,NA,NA
11245300100,11245,"ふじみ野市",1,"西ノ原遺跡","集落跡",35.85522734,139.5205828,1,1,NA,NA,1,1,1,1,NA,NA
11245300700,11245,"ふじみ野市",7,"江川南遺跡","集落跡",35.86329116,139.5107127,1,1,NA,NA,NA,NA,1,1,NA,NA
11245300900,11245,"ふじみ野市",9,"東久保遺跡","集落跡",35.86354919,139.5151303,1,1,NA,NA,NA,NA,0,1,NA,NA
11245301400,11245,"ふじみ野市",14,"大井戸上遺跡","集落跡",35.84834247,139.5200407,1,NA,NA,NA,NA,NA,0,1,NA,NA
11245302000,11245,"ふじみ野市",20,"苗間東久保遺跡","集落跡",35.8631028,139.5321414,1,1,NA,NA,NA,NA,0,NA,NA,NA
11245302200,11245,"ふじみ野市",22,"浄禅寺跡遺跡","集落跡　寺院跡",35.86110305,139.5323006,1,NA,NA,NA,NA,NA,1,1,NA,NA
11245302400,11245,"ふじみ野市",24,"東台遺跡","集落跡　その他（製鉄遺跡）",35.85014899,139.524936,1,NA,NA,NA,1,1,1,1,NA,NA
11245303000,11245,"ふじみ野市",30,"亀居遺跡","集落跡",35.86387172,139.5073696,1,1,NA,NA,NA,NA,0,NA,NA,NA
11245303200,11245,"ふじみ野市",32,"東久保南遺跡","集落跡",35.8580659,139.5164039,1,1,NA,NA,NA,NA,0,1,NA,NA
11245303400,11245,"ふじみ野市",34,"本村遺跡","集落跡",35.85237483,139.5218715,1,NA,NA,NA,NA,NA,1,1,NA,NA
11245303600,11245,"ふじみ野市",36,"鶴ケ岡外遺跡","集落跡",35.85714215,139.4823018,1,1,NA,NA,NA,NA,0,NA,NA,NA
11245303700,11245,"ふじみ野市",37,"大井氏館跡遺跡・大井戸遺跡","集落跡",35.8503748,139.5178518,1,NA,NA,NA,NA,NA,1,1,NA,NA
11245303900,11245,"ふじみ野市",39,"西台遺跡","集落跡",35.84701981,139.5174936,1,NA,NA,NA,1,1,0,1,NA,NA
11245304000,11245,"ふじみ野市",40,"小田久保遺跡","集落跡",35.84889088,139.5140709,1,NA,NA,NA,NA,NA,1,1,NA,NA
11245304100,11245,"ふじみ野市",41,"神明後遺跡","集落跡",35.86006573,139.5281047,1,1,NA,NA,1,1,1,1,NA,NA
11245304200,11245,"ふじみ野市",42,"東久保西遺跡","集落跡",35.86225904,139.5143742,1,1,NA,NA,NA,NA,0,1,NA,NA
11245304400,11245,"ふじみ野市",44,"中沢前遺跡","集落跡",35.85813041,139.5226921,1,1,NA,NA,NA,NA,0,1,NA,NA
11245304600,11245,"ふじみ野市",46,"鶴ケ舞遺跡","集落跡",35.86606492,139.5122648,1,1,NA,NA,1,1,0,NA,NA,NA
11245304700,11245,"ふじみ野市",47,"鶴ケ岡遺跡","集落跡",35.87092125,139.5024411,1,1,NA,NA,NA,NA,0,NA,NA,NA
11324000200,11324,"三芳町",2,"古井戸山遺跡","旧石器 集落跡",35.82105678,139.5473453,1,1,1,1,1,1,1,NA,NA,NA
11324000700,11324,"三芳町",7,"新開遺跡","旧石器 窯跡",35.83191784,139.5444105,1,1,NA,NA,NA,1,0,NA,NA,NA
11324000800,11324,"三芳町",8,"三芳唐沢遺跡","旧石器 集落跡",35.8333714,139.5416257,1,1,NA,NA,NA,NA,0,NA,NA,NA
11324000900,11324,"三芳町",9,"俣埜遺跡","旧石器 集落跡 窯跡",35.83619741,139.5360181,1,1,NA,NA,1,1,0,NA,NA,NA
11324001000,11324,"三芳町",10,"藤久保東第二遺跡","旧石器",35.83583819,139.532155,1,NA,NA,NA,NA,NA,0,NA,NA,NA
11324001100,11324,"三芳町",11,"藤久保東第三遺跡","旧石器 集落跡",35.83808235,139.5334422,1,1,NA,NA,NA,NA,0,NA,NA,NA
11324001200,11324,"三芳町",12,"藤久保東遺跡","旧石器 集落跡",35.83797203,139.5294084,1,1,NA,NA,NA,NA,0,NA,NA,NA
11324001300,11324,"三芳町",13,"浅間後遺跡","旧石器 集落跡",35.84924901,139.5296537,1,1,NA,NA,1,1,0,NA,NA,NA
11324001700,11324,"三芳町",17,"新開第二遺跡","旧石器 窯跡",35.82866384,139.5399742,1,NA,NA,NA,NA,1,0,NA,NA,NA
11324001800,11324,"三芳町",18,"南新埜遺跡","旧石器 集落跡",35.82958261,139.5291056,1,1,NA,NA,NA,NA,0,NA,NA,NA
11324002000,11324,"三芳町",20,"中東遺跡","旧石器",35.8356685,139.5067846,1,NA,NA,NA,NA,NA,0,NA,NA,NA
11324002100,11324,"三芳町",21,"南止遺跡","旧石器",35.81736608,139.5095121,1,NA,NA,NA,NA,NA,0,NA,NA,NA
11324002300,11324,"三芳町",23,"藤久保南遺跡","旧石器",35.83304483,139.5341952,1,NA,NA,NA,NA,NA,0,NA,NA,NA
11324002400,11324,"三芳町",24,"通西遺跡","旧石器",35.82116807,139.5356067,1,NA,NA,NA,NA,NA,0,NA,NA,NA
11324002500,11324,"三芳町",25,"境松遺跡","旧石器 集落跡",35.84711317,139.5092887,1,1,1,NA,NA,NA,0,NA,NA,NA
11324002800,11324,"三芳町",28,"東永久保遺跡","旧石器 集落跡",35.84323432,139.5002325,1,1,NA,NA,NA,NA,0,NA,NA,NA
11324003000,11324,"三芳町",30,"上永久保遺跡","旧石器 集落跡",35.83814454,139.4898457,1,1,NA,NA,NA,NA,0,NA,NA,NA
11324003100,11324,"三芳町",31,"中東第二遺跡","旧石器 集落跡",35.83697732,139.502054,1,1,NA,NA,NA,NA,0,NA,NA,NA
11324003200,11324,"三芳町",32,"中西遺跡","旧石器 集落跡",35.83192926,139.4960963,1,1,NA,NA,NA,NA,0,NA,NA,NA
11324003300,11324,"三芳町",33,"サガヤマ遺跡","旧石器",35.83458777,139.4994533,1,NA,NA,NA,NA,NA,0,NA,NA,NA
11326003400,11326,"毛呂山町",34,"東本遺跡","集落跡",35.95020345,139.3227344,1,1,NA,NA,NA,NA,0,NA,NA,NA
11341017700,11341,"滑川町",177,"二ツ沼南遺跡","その他",36.06626906,139.340499,1,1,NA,NA,NA,NA,0,NA,NA,NA
11341018300,11341,"滑川町",183,"用土庵B遺跡","集落跡",36.06163434,139.3405333,1,1,NA,NA,1,1,0,NA,NA,NA
11341019700,11341,"滑川町",197,"花気古墳","集落跡",36.06124789,139.3557378,1,NA,1,1,NA,NA,0,NA,NA,NA
11341029800,11341,"滑川町",298,"大堀遺跡","散布地",36.04113832,139.3533764,1,1,NA,NA,NA,NA,0,NA,NA,NA
11341036500,11341,"滑川町",365,"中丸遺跡","集落跡",36.04513888,139.344768,1,1,NA,NA,NA,NA,0,NA,NA,NA
11342003800,11342,"嵐山町",38,"向原遺跡","散布地",36.04842502,139.3270301,1,1,NA,NA,NA,NA,0,NA,NA,NA
11408001500,11408,"寄居町",15,"赤浜牛無具利遺跡","集落跡",36.1096494,139.2645192,1,1,NA,NA,NA,NA,0,NA,NA,NA
