"JASID","LGC","Name","Site_no","SiteName","SiteType","Lat","Lon","P","J","Y","K","N","H","M","E","D","U"
11202400800,11202,"熊谷市",8,"船木遺跡","集落跡 墓",36.07979555,139.4219143,NA,NA,1,1,1,1,0,NA,NA,NA
11202401200,11202,"熊谷市",12,"円山遺跡","集落跡",36.07989523,139.4187325,NA,NA,1,NA,1,1,0,NA,NA,NA
11202401800,11202,"熊谷市",18,"北廓遺跡","集落跡 包含層",36.08858217,139.413048,NA,1,1,NA,1,1,0,NA,NA,NA
11202402300,11202,"熊谷市",23,"西内手遺跡","集落跡",36.11161831,139.3845456,NA,1,1,NA,1,1,0,NA,NA,NA
11202404100,11202,"熊谷市",41,"中廓遺跡","集落跡",36.08560027,139.4152093,NA,NA,1,1,1,1,0,NA,NA,NA
11202405100,11202,"熊谷市",51,"大境遺跡","集落跡 古墳",36.07518801,139.4210091,NA,1,1,1,1,1,0,NA,NA,NA
11202406000,11202,"熊谷市",60,"阿諏訪野東遺跡","集落跡 古墳群 古墳（円） 円墳",36.08073975,139.4157458,NA,NA,1,1,NA,NA,0,NA,NA,NA
11202500100,11202,"熊谷市",1,"姥ヶ沢遺跡","集落跡 古墳（円）",36.1266084,139.3137242,NA,1,1,1,1,1,0,NA,NA,NA
11202503200,11202,"熊谷市",32,"鹿島遺跡","集落跡 城館跡",36.10749778,139.3613048,NA,1,1,NA,1,1,1,1,NA,NA
11207003200,11207,"秩父市",32,"柳田下ツ原遺跡","集落跡",36.01372688,139.0844807,NA,NA,1,NA,NA,NA,0,NA,NA,NA
11207003500,11207,"秩父市",35,"柳田遺跡Ⅰ","集落跡",36.01082284,139.0846117,1,NA,1,NA,NA,NA,0,NA,NA,NA
11207003600,11207,"秩父市",36,"柳田遺跡Ⅱ","集落跡",36.0094898,139.0831354,NA,1,1,NA,NA,1,0,NA,NA,NA
11207005400,11207,"秩父市",54,"","集落跡",35.99871872,139.0847852,NA,NA,1,NA,NA,NA,0,NA,NA,NA
11207006700,11207,"秩父市",67,"","集落跡",36.0064678,139.0838582,NA,1,1,NA,NA,NA,0,NA,NA,NA
11207007500,11207,"秩父市",75,"大沼遺跡","集落跡",35.97716531,139.0715942,NA,NA,1,NA,NA,NA,0,NA,NA,NA
11207008000,11207,"秩父市",80,"橋立岩陰遺跡","その他",35.95734,139.057861,1,1,1,1,NA,NA,0,NA,NA,NA
11207025900,11207,"秩父市",259,"","集落跡",35.97324,139.076157,NA,1,1,NA,NA,NA,0,NA,NA,NA
11207026800,11207,"秩父市",268,"野土遺跡","集落跡",35.97324,139.076157,NA,NA,1,NA,NA,NA,0,NA,NA,NA
11207301200,11207,"秩父市",12,"彦久保岩陰遺跡","集落跡 その他",36.037281,139.025421,NA,1,1,1,NA,1,0,NA,NA,NA
11207302500,11207,"秩父市",25,"井上遺跡","集落跡",36.037281,139.025421,NA,1,1,1,1,1,0,NA,NA,NA
11207304900,11207,"秩父市",49,"わらび沢岩陰遺跡","その他",36.064865,138.965881,NA,1,1,1,NA,NA,0,NA,NA,NA
11207310100,11207,"秩父市",101,"井上遺跡II","墓",36.037281,139.025421,NA,NA,1,NA,NA,NA,0,NA,NA,NA
11207502400,11207,"秩父市",24,"中野遺跡","集落跡",35.95757351,138.9842241,NA,1,1,NA,NA,NA,0,NA,NA,NA
11208000400,11208,"所沢市",4,"所沢市No.4遺跡","集落跡",35.80917621,139.534067,1,1,1,NA,NA,NA,0,NA,NA,NA
11208002300,11208,"所沢市",23,"東の上遺跡","集落跡",35.79562186,139.406035,NA,1,1,1,1,1,0,NA,NA,NA
11208002800,11208,"所沢市",28,"吉野遺跡","集落跡",35.78641093,139.386568,1,1,1,1,NA,NA,0,NA,NA,NA
11208003000,11208,"所沢市",30,"西内手遺跡","集落跡",35.83227123,139.4839966,NA,1,1,1,NA,NA,0,NA,NA,NA
11208003200,11208,"所沢市",32,"宮前遺跡","集落跡",35.79205773,139.4057321,1,1,1,1,NA,NA,0,NA,NA,NA
11208004100,11208,"所沢市",41,"日向遺跡","集落跡",35.7870967,139.4147931,1,1,1,1,1,1,0,NA,NA,NA
11208005400,11208,"所沢市",54,"","集落跡",35.79397234,139.427108,NA,1,1,1,NA,NA,0,NA,NA,NA
11208009300,11208,"所沢市",93,"所沢市No.93遺跡","集落跡",35.78097903,139.438039,NA,NA,1,1,NA,NA,0,NA,NA,NA
11208014300,11208,"所沢市",143,"所沢市No.143遺跡","散布地",35.78495774,139.4965223,1,1,1,NA,NA,NA,0,NA,NA,NA
11208014600,11208,"所沢市",146,"所沢市No.146遺跡","散布地",35.79219146,139.519619,NA,1,1,1,1,1,0,NA,NA,NA
11208014700,11208,"所沢市",147,"寺山遺跡","散布地",35.79007888,139.495032,NA,1,1,1,NA,NA,0,NA,NA,NA
11208014900,11208,"所沢市",149,"所沢市No.149遺跡","集落跡",35.78148013,139.4797193,NA,1,1,1,NA,NA,0,NA,NA,NA
11212000100,11212,"東松山市",1,"高坂一番町遺跡","集落跡",36.00636925,139.4011859,NA,1,1,1,1,1,0,NA,NA,NA
11212000300,11212,"東松山市",3,"高坂二番町遺跡","集落跡",36.00497549,139.4025895,NA,1,1,1,1,1,0,NA,NA,NA
11212001100,11212,"東松山市",11,"高坂三番町遺跡","集落跡",36.0025894,139.4037067,NA,NA,1,1,1,1,0,NA,NA,NA
11212001700,11212,"東松山市",17,"上後原遺跡","集落跡",36.00780968,139.3963859,NA,NA,1,NA,1,1,0,NA,NA,NA
11212001800,11212,"東松山市",18,"大門遺跡","集落跡",36.00892739,139.3938647,NA,NA,1,1,1,1,0,NA,NA,NA
11212005100,11212,"東松山市",51,"代正寺遺跡","集落跡",35.99964655,139.4074975,NA,NA,1,1,1,1,0,NA,NA,NA
11212005400,11212,"東松山市",54,"大西遺跡","集落跡",35.99705414,139.4010982,NA,1,1,1,1,1,0,NA,NA,NA
11212005800,11212,"東松山市",58,"下寺前遺跡","集落跡",35.99984502,139.3988676,NA,NA,1,1,1,1,1,1,NA,NA
11212009300,11212,"東松山市",93,"杉の木遺跡","集落跡",35.99407867,139.3957099,NA,1,1,1,1,1,0,NA,NA,NA
11212011000,11212,"東松山市",110,"宮本遺跡","集落跡",35.99141399,139.3917218,NA,1,1,1,1,1,0,NA,NA,NA
11212014800,11212,"東松山市",148,"鷲神社裏遺跡","集落跡",36.01964289,139.4356976,NA,1,1,1,1,1,0,NA,NA,NA
11212016100,11212,"東松山市",161,"五領遺跡","集落跡",36.02884855,139.4130914,NA,1,1,1,NA,NA,0,NA,NA,NA
11212017400,11212,"東松山市",174,"岩の上遺跡","集落跡",36.02956927,139.3716491,NA,1,1,NA,1,1,0,NA,NA,NA
11212018800,11212,"東松山市",188,"下松1号墳","古墳群　古墳",36.03854561,139.4148691,NA,NA,1,1,NA,NA,0,NA,NA,NA
11212019000,11212,"東松山市",190,"上松本遺跡","集落跡　古墳",36.03941137,139.4130605,NA,NA,1,1,NA,NA,0,NA,NA,NA
11212020100,11212,"東松山市",201,"201遺跡","集落跡",36.07355365,139.3879927,NA,1,1,1,1,1,0,NA,NA,NA
11212021700,11212,"東松山市",217,"長坂遺跡","集落跡",36.08293948,139.3964896,NA,1,1,NA,NA,NA,0,NA,NA,NA
11212022200,11212,"東松山市",222,"No.222遺跡","集落跡",36.09159483,139.3903581,NA,1,1,1,NA,NA,0,NA,NA,NA
11212023000,11212,"東松山市",230,"緑山遺跡","集落跡",35.98986138,139.3810053,NA,NA,1,1,NA,NA,0,NA,NA,NA
11212023100,11212,"東松山市",231,"児沢遺跡","集落跡",35.98752429,139.3801664,NA,NA,1,1,NA,NA,0,NA,NA,NA
11212024300,11212,"東松山市",243,"観音寺遺跡","集落跡",36.03929294,139.4171154,NA,NA,1,1,NA,NA,0,NA,NA,NA
11212024400,11212,"東松山市",244,"向台遺跡","集落跡",36.0534852,139.4111722,NA,NA,1,1,NA,NA,0,NA,NA,NA
11212028100,11212,"東松山市",281,"根平遺跡","集落跡　窯跡",35.99680873,139.3701261,NA,NA,1,1,NA,NA,0,NA,NA,NA
11212029400,11212,"東松山市",294,"中内手遺跡","集落跡",36.07786795,139.3946017,NA,NA,1,1,NA,NA,0,NA,NA,NA
11212029500,11212,"東松山市",295,"No.295遺跡","集落跡",36.07921523,139.3927175,NA,1,1,1,1,1,0,NA,NA,NA
11212029600,11212,"東松山市",296,"No.296遺跡","集落跡",36.07948855,139.3857078,NA,NA,1,1,NA,NA,0,NA,NA,NA
11212029700,11212,"東松山市",297,"No.297遺跡","集落跡",36.07551707,139.3796454,NA,1,1,1,1,1,0,NA,NA,NA
11212029900,11212,"東松山市",299,"No.299遺跡","集落跡",36.07404803,139.3839966,NA,1,1,1,NA,NA,0,NA,NA,NA
11212030100,11212,"東松山市",301,"吉ヶ谷南遺跡","集落跡",36.07135006,139.3883505,NA,1,1,1,NA,NA,0,NA,NA,NA
11212030200,11212,"東松山市",302,"庚塚","集落跡",36.07145428,139.3942975,NA,1,1,1,NA,NA,0,NA,NA,NA
11212030300,11212,"東松山市",303,"吉ヶ谷遺跡","集落跡",36.06871406,139.3867138,NA,1,1,NA,NA,NA,0,NA,NA,NA
11212033200,11212,"東松山市",332,"かんべ塚","古墳",36.01652826,139.4376756,NA,1,1,1,NA,NA,0,NA,NA,NA
11212035100,11212,"東松山市",351,"天神原遺跡","集落跡",36.00582682,139.4380635,NA,1,1,1,1,1,0,NA,NA,NA
11212035700,11212,"東松山市",357,"毛塚23号墳","古墳　その他",35.99541213,139.3952043,NA,1,1,1,NA,NA,0,NA,NA,NA
11212036000,11212,"東松山市",360,"扇谷遺跡","集落跡",36.07935293,139.3875268,NA,NA,1,1,NA,NA,0,NA,NA,NA
11218607100,11218,"深谷市",71,"","集落跡",36.1406203,139.2161828,NA,1,1,1,NA,NA,0,NA,NA,NA
11218711000,11218,"深谷市",110,"荷鞍ヶ谷戸遺跡","窯跡",36.12366262,139.3062998,NA,1,1,NA,1,1,0,NA,NA,NA
11218711300,11218,"深谷市",113,"平方前古墳群","古墳 古墳群 散布地",36.124711,139.3083613,NA,1,1,1,NA,NA,0,NA,NA,NA
11218713700,11218,"深谷市",137,"川端遺跡","集落跡",36.11584965,139.2845595,NA,1,1,NA,NA,NA,0,NA,NA,NA
11218715400,11218,"深谷市",154,"上本田東遺跡","集落跡",36.11533347,139.281844,NA,NA,1,NA,NA,NA,0,NA,NA,NA
11218715800,11218,"深谷市",158,"上篠場遺跡","散布地",36.11401188,139.2974834,NA,1,1,NA,NA,NA,1,NA,NA,NA
11218715900,11218,"深谷市",159,"下篠場遺跡","散布地",36.11844114,139.3046427,NA,1,1,NA,1,1,1,NA,NA,NA
11218716000,11218,"深谷市",160,"万願寺遺跡","集落跡",36.12031468,139.3055462,NA,NA,1,NA,NA,NA,0,NA,NA,NA
11218716400,11218,"深谷市",164,"金井遺跡","集落跡",36.12796145,139.2702937,NA,1,1,NA,1,1,1,NA,NA,NA
11218716800,11218,"深谷市",168,"四反歩東遺跡","集落跡",36.11974898,139.3030965,NA,1,1,NA,NA,NA,0,NA,NA,NA
11218717400,11218,"深谷市",174,"向山遺跡","集落跡",36.12200867,139.3089137,NA,1,1,NA,NA,NA,0,NA,NA,NA
11227000100,11227,"朝霞市",1,"大山第一遺跡","集落跡",35.83010782,139.5865562,1,1,1,1,NA,NA,0,NA,NA,NA
11227000900,11227,"朝霞市",9,"道合・立出遺跡","集落跡",35.82466953,139.5854012,NA,1,1,1,1,1,1,1,NA,NA
11227001100,11227,"朝霞市",11,"八ケタ・中通遺跡","集落跡 その他",35.82654238,139.5912406,1,1,1,1,1,1,1,1,NA,NA
11227001200,11227,"朝霞市",12,"長塚遺跡","集落跡",35.82477964,139.5942027,NA,1,1,1,NA,NA,0,NA,NA,NA
11227001300,11227,"朝霞市",13,"人部・峡遺跡","集落跡 古墳",35.82166711,139.5965927,1,1,1,1,1,1,1,1,NA,NA
11227001400,11227,"朝霞市",14,"中道・中道下遺跡","集落跡",35.81896655,139.5959633,1,1,1,1,1,1,1,1,NA,NA
11227001600,11227,"朝霞市",16,"北原・谷津遺跡","集落跡",35.8193374,139.5886413,NA,1,1,1,NA,1,0,NA,NA,NA
11227001700,11227,"朝霞市",17,"北原・西原遺跡","集落跡",35.81734751,139.5867869,NA,1,1,NA,NA,NA,0,NA,NA,NA
11227001800,11227,"朝霞市",18,"南割・西久保遺跡","集落跡",35.81348782,139.5870675,NA,1,1,NA,NA,NA,0,NA,NA,NA
11227001900,11227,"朝霞市",19,"弁財上・弁財谷遺跡","集落跡",35.81174782,139.583286,NA,1,1,NA,NA,NA,0,NA,NA,NA
11227002000,11227,"朝霞市",20,"泉水山・富士谷遺跡","集落跡",35.80726827,139.5810267,1,1,1,1,1,1,1,1,NA,NA
11227002900,11227,"朝霞市",29,"膝折宿","集落跡",35.79363518,139.5841186,NA,1,1,1,NA,NA,0,NA,NA,NA
11227003800,11227,"朝霞市",38,"芹沢遺跡","集落跡",35.80190074,139.5842001,NA,1,1,1,NA,NA,1,NA,NA,NA
11227004500,11227,"朝霞市",45,"中道・岡台遺跡","集落跡 寺院跡 城跡",35.81081882,139.5975892,NA,1,1,1,NA,NA,1,NA,NA,NA
11227004700,11227,"朝霞市",47,"向山遺跡","集落跡",35.8096731,139.6030372,NA,1,1,1,NA,1,0,NA,NA,NA
11227005400,11227,"朝霞市",54,"宮台・宮原遺跡","集落跡",35.80690327,139.6050489,1,1,1,1,1,1,1,1,NA,NA
11227005500,11227,"朝霞市",55,"宮台遺跡","集落跡 古墳",35.80965344,139.6054942,1,1,1,1,1,1,1,1,NA,NA
11227005800,11227,"朝霞市",58,"根岸通第三遺跡","集落跡",35.80503033,139.6084173,NA,1,1,1,NA,1,1,NA,NA,NA
11227005900,11227,"朝霞市",59,"新屋敷遺跡","集落跡",35.80324317,139.6111246,NA,1,1,1,NA,NA,1,NA,NA,NA
11227006100,11227,"朝霞市",61,"南ヶ谷戸遺跡","集落跡",35.7977716,139.6129693,NA,1,1,1,NA,NA,1,NA,NA,NA
11228000200,11228,"志木市",2,"中野遺跡","旧石器 集落跡 墓",35.83347096,139.5731115,1,1,1,1,NA,1,1,1,NA,NA
11228000300,11228,"志木市",3,"城山遺跡","旧石器 貝塚 集落跡 城跡",35.83232667,139.569602,1,1,1,1,1,1,1,1,NA,NA
11228000500,11228,"志木市",5,"中道遺跡","旧石器 集落跡 墓",35.82948133,139.5689154,1,1,1,1,1,1,1,1,NA,NA
11228000700,11228,"志木市",7,"西原大塚遺跡","旧石器 集落跡 墓",35.82443988,139.565711,1,1,1,1,1,1,1,1,NA,NA
11228001000,11228,"志木市",10,"田子山遺跡","集落跡 墓",35.83191384,139.5827627,NA,1,1,1,1,1,1,1,NA,1
11228001100,11228,"志木市",11,"富士前遺跡","集落跡",35.82990354,139.5806265,NA,1,1,1,NA,1,0,1,NA,1
11228001500,11228,"志木市",15,"市場裏遺跡","集落跡",35.83295699,139.5774697,NA,NA,1,1,NA,NA,0,NA,NA,1
11229000100,11229,"和光市",1,"上之郷遺跡","集落跡",35.80062422,139.6163731,NA,NA,1,1,NA,NA,0,NA,NA,NA
11229000200,11229,"和光市",2,"花ノ木遺跡","集落跡",35.79784408,139.6172872,NA,1,1,1,1,1,0,1,NA,NA
11229000300,11229,"和光市",3,"峯前遺跡","集落跡",35.79509511,139.619934,NA,NA,1,1,NA,1,0,NA,NA,NA
11229000400,11229,"和光市",4,"四ツ木遺跡","集落跡",35.79398121,139.6222991,1,1,1,1,NA,1,0,NA,NA,NA
11229000500,11229,"和光市",5,"午王山遺跡","集落跡",35.79581211,139.6268027,1,1,1,1,1,1,1,NA,NA,NA
11229000900,11229,"和光市",9,"小井戸遺跡","集落跡",35.79225009,139.6100892,NA,1,1,NA,NA,NA,0,NA,NA,NA
11229001200,11229,"和光市",12,"下里遺跡","集落跡　貝塚　散布地",35.79233597,139.6305653,NA,NA,1,NA,1,NA,0,NA,NA,NA
11229001300,11229,"和光市",13,"吹上遺跡","集落跡　散布地",35.79150052,139.6331974,NA,1,1,1,1,1,0,NA,NA,NA
11229001400,11229,"和光市",14,"妙典寺遺跡","集落跡　散布地",35.79105728,139.6271596,NA,1,1,1,NA,NA,0,NA,NA,NA
11229001500,11229,"和光市",15,"吹上原遺跡","集落跡　古墳",35.78952881,139.6303755,1,1,1,1,NA,NA,0,1,NA,NA
11229002200,11229,"和光市",22,"城山遺跡","集落跡",35.784744,139.6247807,NA,1,1,1,NA,1,0,NA,NA,NA
11229002300,11229,"和光市",23,"榎堂遺跡","集落跡　墓",35.77450593,139.6090666,NA,NA,1,1,1,1,0,NA,NA,NA
11229003100,11229,"和光市",31,"谷戸島遺跡","集落跡",35.78848107,139.6179011,NA,1,1,NA,NA,NA,0,NA,NA,NA
11229003400,11229,"和光市",34,"半三池遺跡","集落跡",35.77450593,139.6090666,NA,1,1,1,NA,NA,0,NA,NA,NA
11229003500,11229,"和光市",35,"峯遺跡","集落跡",35.77450593,139.6090666,1,1,1,1,NA,1,0,NA,NA,NA
11229003800,11229,"和光市",38,"北原新田遺跡","集落跡",35.79118306,139.60652,NA,1,1,NA,NA,NA,0,NA,NA,NA
11229003900,11229,"和光市",39,"越之上遺跡","集落跡",35.77734041,139.6218684,NA,1,1,NA,NA,NA,0,NA,NA,NA
11229004000,11229,"和光市",40,"白子向山遺跡","",35.76957197,139.6212962,NA,1,1,NA,NA,1,1,NA,NA,NA
11229004100,11229,"和光市",41,"越後山遺跡","集落跡",35.77210995,139.6153071,1,1,1,1,NA,NA,0,NA,NA,NA
11230000300,11230,"新座市",3,"","集落跡",35.81941141,139.5459192,NA,1,1,1,NA,NA,0,NA,NA,NA
11230003200,11230,"新座市",32,"跡見学園新座町グランド遺跡","集落跡",35.8167907,139.5434015,NA,1,1,NA,NA,NA,0,NA,NA,NA
11230004100,11230,"新座市",41,"","散布地",35.82057734,139.5428982,NA,NA,1,NA,NA,NA,0,1,NA,NA
11230004200,11230,"新座市",42,"","散布地",35.81675875,139.5470205,NA,1,1,NA,NA,1,0,NA,NA,NA
11230004300,11230,"新座市",43,"","散布地",35.81528271,139.5484818,NA,NA,1,NA,NA,1,0,NA,NA,NA
11230004400,11230,"新座市",44,"","その他",35.81404535,139.5496643,NA,1,1,NA,1,1,1,NA,NA,NA
11230004600,11230,"新座市",46,"","散布地",35.81757837,139.5545682,NA,1,1,NA,1,1,1,NA,NA,NA
11230005000,11230,"新座市",50,"","",35.80338842,139.557432,NA,NA,1,NA,NA,1,0,NA,NA,NA
11230005700,11230,"新座市",57,"","散布地",35.79511733,139.5771365,NA,NA,1,NA,NA,NA,0,1,NA,NA
11230006200,11230,"新座市",62,"","散布地",35.78768816,139.5761341,1,1,1,NA,NA,1,0,NA,NA,NA
11230006300,11230,"新座市",63,"","散布地",35.78702278,139.5780585,NA,1,1,NA,NA,NA,0,NA,NA,NA
11230009200,11230,"新座市",92,"","散布地",35.76809427,139.5657808,NA,NA,1,1,NA,NA,0,NA,NA,NA
11235001100,11235,"富士見市",11,"伊佐島遺跡","集落跡",35.86874966,139.5465582,NA,NA,1,NA,NA,1,0,NA,NA,NA
11235003900,11235,"富士見市",39,"打越遺跡","貝塚 集落跡 城跡",35.84456215,139.5513615,1,1,1,1,1,NA,1,NA,NA,NA
11235004000,11235,"富士見市",40,"松山遺跡","貝塚 集落跡 墓",35.84385094,139.5560155,NA,1,1,1,NA,1,1,1,NA,NA
11235004100,11235,"富士見市",41,"氷川前遺跡","貝塚 集落跡 古墳 その他",35.84653252,139.5588217,1,1,1,1,NA,1,0,NA,NA,NA
11235004200,11235,"富士見市",42,"水子貝塚","貝塚 集落跡",35.84526472,139.5609198,1,1,1,1,NA,1,1,1,NA,NA
11235004400,11235,"富士見市",44,"観音前遺跡","集落跡 墓 その他",35.84374953,139.5685873,1,1,1,1,NA,1,1,1,NA,NA
11235004600,11235,"富士見市",46,"東台遺跡","貝塚 集落跡",35.83911101,139.5626746,NA,1,1,NA,NA,1,1,1,NA,NA
11235004700,11235,"富士見市",47,"正網遺跡","集落跡",35.83775584,139.5597561,NA,1,1,NA,NA,1,1,NA,NA,NA
11235004900,11235,"富士見市",49,"栗谷ツ遺跡","集落跡 窯跡 その他",35.83614773,139.5551403,1,1,1,NA,NA,1,1,NA,NA,NA
11235005000,11235,"富士見市",50,"別所遺跡","集落跡",35.83487977,139.5572765,NA,1,1,1,NA,1,1,NA,NA,NA
11235005100,11235,"富士見市",51,"北通遺跡","貝塚 集落跡 古墳 墓",35.83324067,139.5541485,1,1,1,1,1,1,1,NA,NA,NA
11235005200,11235,"富士見市",52,"南通遺跡","貝塚 集落跡",35.83005516,139.5518215,NA,1,1,1,1,1,0,1,NA,NA
11235005300,11235,"富士見市",53,"上内手遺跡","集落跡",35.86850697,139.5508865,NA,NA,1,1,1,1,1,1,NA,NA
11235005500,11235,"富士見市",55,"難波田氏館跡","集落跡 寺院跡 城跡",35.85808913,139.5676339,NA,NA,1,1,NA,NA,1,1,NA,NA
11239003700,11239,"坂戸市",37,"北方遺跡","集落跡",35.965117,139.4472998,NA,1,1,1,1,1,0,NA,NA,NA
11239004000,11239,"坂戸市",40,"寺脇遺跡","集落跡",35.96994351,139.4448409,NA,NA,1,NA,NA,NA,0,NA,NA,NA
11239004200,11239,"坂戸市",42,"小沼堀之内遺跡","集落跡",35.97159895,139.4457469,NA,1,1,1,1,1,0,NA,NA,NA
11239004300,11239,"坂戸市",43,"五反田遺跡","集落跡",35.97231338,139.4430871,NA,1,1,1,1,1,0,NA,NA,NA
11239004600,11239,"坂戸市",46,"宿東遺跡","集落跡",35.97119084,139.4357215,NA,1,1,1,1,1,0,NA,NA,NA
11239006600,11239,"坂戸市",66,"勝呂遺跡","集落跡",35.97580433,139.4192223,NA,1,1,1,1,1,0,NA,NA,NA
11239006800,11239,"坂戸市",68,"新町遺跡","集落跡",35.97373831,139.4128764,NA,NA,1,NA,NA,1,0,NA,NA,NA
11239006900,11239,"坂戸市",69,"柊遺跡","集落跡 墓",35.97107093,139.4149707,NA,NA,1,1,1,1,0,NA,NA,NA
11239007000,11239,"坂戸市",70,"前原遺跡","集落跡",35.96765323,139.4170306,NA,NA,1,1,NA,NA,0,NA,NA,NA
11239007100,11239,"坂戸市",71,"勇福寺遺跡","集落跡 墓",35.97279362,139.4083102,NA,NA,1,1,NA,NA,0,NA,NA,NA
11239007300,11239,"坂戸市",73,"相撲場遺跡","集落跡",35.97004286,139.4066623,NA,NA,1,1,1,1,0,NA,NA,NA
11239007800,11239,"坂戸市",78,"清水町遺跡","集落跡",35.96475656,139.401967,NA,1,1,1,NA,NA,0,NA,NA,NA
11239008200,11239,"坂戸市",82,"鶴ヶ丘遺跡","集落跡",35.95025971,139.3992214,NA,1,1,NA,1,1,0,NA,NA,NA
11239008500,11239,"坂戸市",85,"坂戸小学校遺跡","集落跡",35.96753529,139.3984308,NA,NA,1,NA,NA,NA,0,NA,NA,NA
11239008600,11239,"坂戸市",86,"元役場遺跡","集落跡",35.96553462,139.3987398,NA,NA,1,1,1,1,0,NA,NA,NA
11239009000,11239,"坂戸市",90,"花影遺跡","集落跡 墓",35.95640417,139.3858326,NA,1,1,NA,1,1,0,NA,NA,NA
11239010700,11239,"坂戸市",107,"新しき村遺跡","集落跡",35.93043025,139.3261004,NA,1,1,NA,NA,NA,0,NA,NA,NA
11239010900,11239,"坂戸市",109,"東和田遺跡","散布地",35.98091503,139.3877067,NA,NA,1,NA,NA,NA,0,NA,NA,NA
11239012500,11239,"坂戸市",125,"三福寺遺跡、三福寺館","集落跡 城跡",35.96359032,139.3627658,NA,NA,1,1,1,1,1,1,NA,NA
11239012900,11239,"坂戸市",129,"西浦遺跡","集落跡",35.96339954,139.3707545,NA,1,1,1,1,1,0,NA,NA,NA
11239015700,11239,"坂戸市",157,"塚の越遺跡","集落跡 古墳",35.96611151,139.361169,NA,1,1,1,1,1,1,NA,NA,NA
11241000400,11241,"鶴ヶ島市",4,"一天狗遺跡","集落跡",35.95259539,139.3926558,NA,NA,1,1,1,1,0,NA,NA,NA
11241001100,11241,"鶴ヶ島市",11,"天神前遺跡","集落跡",35.93180018,139.3814095,NA,1,1,1,NA,NA,0,NA,NA,NA
11241001700,11241,"鶴ヶ島市",17,"鶴が丘遺跡","集落跡",35.92437266,139.4185402,1,1,1,1,1,NA,0,NA,NA,NA
11241009200,11241,"鶴ヶ島市",92,"柳戸遺跡","集落跡",35.92870216,139.3968396,1,1,1,NA,NA,NA,1,1,NA,NA
11324000100,11324,"三芳町",1,"本村南遺跡","集落跡",35.82436638,139.5491,NA,1,1,1,NA,NA,0,NA,NA,NA
11324000200,11324,"三芳町",2,"古井戸山遺跡","旧石器 集落跡",35.82105678,139.5473453,1,1,1,1,1,1,1,NA,NA,NA
11324000300,11324,"三芳町",3,"本村北遺跡","集落跡",35.8261603,139.549863,NA,1,1,1,1,1,0,NA,NA,NA
11324000400,11324,"三芳町",4,"北側遺跡","集落跡",35.82767583,139.5507022,NA,1,1,1,1,1,0,NA,NA,NA
11324001400,11324,"三芳町",14,"生出窪南遺跡","集落跡",35.82163677,139.5430528,NA,1,1,NA,NA,NA,0,NA,NA,NA
11324002500,11324,"三芳町",25,"境松遺跡","旧石器 集落跡",35.84711317,139.5092887,1,1,1,NA,NA,NA,0,NA,NA,NA
11326002100,11326,"毛呂山町",21,"下中尾遺跡","集落跡",35.93050117,139.3250075,NA,1,1,NA,NA,NA,0,NA,NA,NA
11326002800,11326,"毛呂山町",28,"中在家遺跡","",35.93825925,139.276351,NA,NA,1,NA,NA,NA,0,NA,NA,NA
11327001700,11327,"越生町",17,"南原遺跡","集落跡",35.95564234,139.3021036,NA,1,1,NA,NA,NA,0,NA,NA,NA
11327002000,11327,"越生町",20,"多門寺遺跡","集落跡",35.95023565,139.302899,NA,1,1,NA,NA,NA,0,NA,NA,NA
11341001900,11341,"滑川町",19,"造山古墳群","古墳 古墳群",36.09531705,139.3822674,NA,NA,1,1,NA,NA,0,NA,NA,NA
11341002600,11341,"滑川町",26,"根肥南遺跡","集落跡",36.08639329,139.3769624,NA,NA,1,1,NA,NA,0,NA,NA,NA
11341002700,11341,"滑川町",27,"根肥遺跡","集落跡",36.08536672,139.3772028,NA,NA,1,1,NA,NA,0,NA,NA,NA
11341003100,11341,"滑川町",31,"弁財天遺跡","集落跡",36.0895284,139.368654,NA,NA,1,1,1,1,0,NA,NA,NA
11341004900,11341,"滑川町",49,"新井遺跡","集落跡",36.07328644,139.3771197,NA,NA,1,NA,NA,NA,0,NA,NA,NA
11341005200,11341,"滑川町",52,"追越遺跡","集落跡",36.0685982,139.3748826,NA,NA,1,1,1,1,0,NA,NA,NA
11341006000,11341,"滑川町",60,"城原遺跡","集落跡",36.05811741,139.3809719,NA,NA,1,1,1,NA,0,NA,NA,NA
11341008300,11341,"滑川町",83,"糟沢古墳群","古墳群 古墳",36.0758308,139.3630507,NA,1,1,1,NA,NA,0,NA,NA,NA
11341008400,11341,"滑川町",84,"栗谷古墳群","古墳群 古墳 散布地",36.077414,139.361017,NA,1,1,1,NA,NA,0,NA,NA,NA
11341014500,11341,"滑川町",145,"船川西遺跡","集落跡 古墳",36.08886,139.328537,NA,NA,1,1,NA,NA,0,NA,NA,NA
11341014600,11341,"滑川町",146,"船川遺跡","集落跡",36.08386112,139.3336769,NA,1,1,1,NA,NA,0,NA,NA,NA
11341019700,11341,"滑川町",197,"花気古墳","集落跡",36.06124789,139.3557378,1,NA,1,1,NA,NA,0,NA,NA,NA
11341024200,11341,"滑川町",242,"平谷遺跡","集落跡",36.05785813,139.3571678,NA,1,1,1,NA,NA,0,NA,NA,NA
11341027500,11341,"滑川町",275,"屋田遺跡","集落跡",36.05082936,139.343635,NA,NA,1,1,NA,NA,0,NA,NA,NA
11341028700,11341,"滑川町",287,"両家II遺跡","集落跡",36.04689236,139.369835,NA,1,1,1,NA,NA,0,NA,NA,NA
11341032100,11341,"滑川町",321,"寺谷遺跡","集落跡",36.05706376,139.3594223,NA,1,1,1,NA,NA,0,NA,NA,NA
11341036800,11341,"滑川町",368,"柳谷遺跡","集落跡",36.09416148,139.3762758,NA,NA,1,1,NA,NA,0,NA,NA,NA
11341036900,11341,"滑川町",369,"宮田遺跡","集落跡",36.08414591,139.3763445,NA,NA,1,NA,NA,NA,0,NA,NA,NA
11342000900,11342,"嵐山町",9,"峠の平古墳群2号墳","その他",36.00909232,139.32882,NA,NA,1,NA,NA,NA,0,NA,NA,NA
11342008800,11342,"嵐山町",88,"屋田古墳群","集落跡 古墳群",36.05036361,139.3420048,NA,1,1,1,NA,NA,0,NA,NA,NA
11347000401,11347,"吉見町",NA,"A区","集落跡",36.03827868,139.4375749,NA,NA,1,1,NA,NA,0,NA,NA,NA
11347000402,11347,"吉見町",NA,"B区","集落跡",36.03773755,139.4354245,NA,NA,1,1,NA,NA,0,NA,NA,NA
11347000403,11347,"吉見町",NA,"C区","集落跡",36.04192318,139.4386532,NA,NA,1,1,NA,NA,0,NA,NA,NA
11347000500,11347,"吉見町",5,"久米田古墳群","集落跡",36.04159638,139.4354245,NA,NA,1,1,NA,NA,0,NA,NA,NA
11347000503,11347,"吉見町",NA,"A区1号墳跡","集落跡",36.04106893,139.4365918,NA,NA,1,1,NA,NA,0,NA,NA,NA
11347000504,11347,"吉見町",NA,"A区2号墳跡","集落跡",36.06788641,139.4274294,NA,NA,1,1,NA,NA,0,NA,NA,NA
11347000900,11347,"吉見町",9,"八耕地遺跡","集落跡",36.05691188,139.4396666,NA,NA,1,NA,NA,NA,0,NA,NA,NA
11347001100,11347,"吉見町",11,"山の上遺跡","集落跡",36.05832023,139.4368883,NA,NA,1,1,NA,NA,0,NA,NA,NA
11347001300,11347,"吉見町",13,"萬神遺跡","集落跡",36.0391193,139.4420177,NA,1,1,1,1,1,0,NA,NA,NA
11347001600,11347,"吉見町",16,"和名遺跡","集落跡",36.03950057,139.4401144,NA,1,1,1,NA,NA,0,NA,NA,NA
11347001700,11347,"吉見町",17,"丸山遺跡","集落跡",36.0401252,139.4412989,NA,NA,1,1,NA,NA,0,NA,NA,NA
11347001900,11347,"吉見町",19,"台方遺跡","集落跡 古墳群",36.02080924,139.4685787,NA,1,1,1,1,1,0,NA,NA,NA
11347002900,11347,"吉見町",29,"田甲原遺跡","集落跡",36.02300848,139.4536186,NA,NA,1,1,NA,NA,0,NA,NA,NA
11347003100,11347,"吉見町",31,"高負彦根神社前遺跡","集落跡 祭祀",36.06857598,139.4285853,NA,1,1,1,1,1,0,NA,NA,NA
11347004000,11347,"吉見町",40,"大行山遺跡","集落跡 古墳群 古墳",36.04857556,139.4394097,NA,1,1,1,NA,NA,0,NA,NA,NA
11347004400,11347,"吉見町",44,"三ノ谷遺跡","集落跡 古墳群",36.02447933,139.4616468,NA,1,1,1,1,1,0,NA,NA,NA
11347004700,11347,"吉見町",47,"西吉見条里遺跡","集落跡 その他",36.05331673,139.4324044,NA,1,1,1,1,1,0,NA,NA,NA
11347005100,11347,"吉見町",51,"十五耕地遺跡","集落跡",36.02745753,139.4407093,NA,1,1,1,1,1,0,NA,NA,NA
11347005300,11347,"吉見町",53,"村中遺跡","集落跡",36.02429588,139.4652094,NA,1,1,1,1,1,0,NA,NA,NA
11347006200,11347,"吉見町",62,"三ノ耕地遺跡","集落跡 古墳群",36.04220345,139.465484,NA,1,1,1,1,1,0,NA,NA,NA
11347010900,11347,"吉見町",109,"七ノ谷遺跡","集落跡",36.03730654,139.4460943,NA,1,1,1,NA,NA,1,1,NA,NA
11347012400,11347,"吉見町",124,"八反田C遺跡","集落跡",36.05116867,139.431761,NA,1,1,NA,NA,NA,0,NA,NA,NA
11348007800,11348,"鳩山町",78,"天神台東遺跡","集落跡",35.96903452,139.3464386,NA,1,1,NA,1,1,1,1,NA,NA
11348008200,11348,"鳩山町",82,"赤沼高在家","集落跡 散布地",35.97224305,139.3492995,NA,NA,1,NA,1,1,1,NA,NA,NA
11362012500,11362,"皆野町",125,"内出遺跡","散布地",36.06404976,139.0918831,NA,1,1,1,NA,NA,0,1,NA,NA
11365400400,11365,"小鹿野町",4,"北町裏遺跡","集落跡",36.01961265,139.008002,NA,1,1,1,NA,NA,0,NA,NA,NA
11365403600,11365,"小鹿野町",36,"小金沢遺跡","集落跡",36.02482448,138.9614555,NA,1,1,NA,NA,NA,0,NA,NA,NA
11408003000,11408,"寄居町",30,"伊勢原遺跡","集落跡",36.10904642,139.2352606,NA,NA,1,1,NA,NA,0,NA,NA,NA
11408014100,11408,"寄居町",141,"用土平遺跡","集落跡",36.16869905,139.1994612,NA,NA,1,NA,NA,NA,0,NA,NA,NA
11408020200,11408,"寄居町",202,"日影遺跡","散布地",36.16134015,139.1992723,NA,NA,1,1,1,1,0,NA,NA,NA
